[{"city": "Baton Rouge, LA", "href": "http://geauxhack.com/", "name": "GeauxHack", "latitude": 30.4582829, "image": "https://s3.amazonaws.com/assets.mlh.io/events/logos/000/000/061/thumb/geauxhack.jpg?1403123830", "weekend": "August 30th - 31st", "id": 1, "longitude": -91.1403196}, {"city": "Baltimore, MD", "href": "http://hophacks.com", "name": "HopHacks", "latitude": 39.2903848, "image": "https://s3.amazonaws.com/assets.mlh.io/events/logos/000/000/080/thumb/hophacks.png?1408029821", "weekend": "September 5th - 7th", "id": 2, "longitude": -76.6121893}, {"city": "Ann Arbor, MI", "href": "http://mhacks.org", "name": "MHacks", "latitude": 42.2808256, "image": "https://s3.amazonaws.com/assets.mlh.io/events/logos/000/000/059/thumb/mhacks.jpg?1405537604", "weekend": "September 5th - 7th", "id": 3, "longitude": -83.7430378}, {"city": "Ames, IA", "href": "http://hackisu.com/", "name": "HackISU", "latitude": 42.034722, "image": "https://s3.amazonaws.com/assets.mlh.io/events/logos/000/000/075/thumb/hackisu.jpg?1406326056", "weekend": "September 12th - 14th", "id": 4, "longitude": -93.61999999999999}, {"city": "Philadelphia, PA", "href": "http://pennapps.com", "name": "PennApps X", "latitude": 39.952335, "image": "https://s3.amazonaws.com/assets.mlh.io/events/logos/000/000/050/thumb/pennapps.png?1402058977", "weekend": "September 12th - 14th", "id": 5, "longitude": -75.16378900000001}, {"city": "Atlanta, GA", "href": "http://hackgt.com/", "name": "HackGT", "latitude": 33.7489954, "image": "https://s3.amazonaws.com/assets.mlh.io/events/logos/000/000/058/thumb/hackgt2.png?1403144124", "weekend": "September 19th - 21st", "id": 6, "longitude": -84.3879824}, {"city": "Waterloo, ON", "href": "http://hackthenorth.com", "name": "Hack the North", "latitude": 43.4642578, "image": "https://s3.amazonaws.com/assets.mlh.io/events/logos/000/000/042/thumb/hackthenorth.png?1402057936", "weekend": "September 19th - 21st", "id": 7, "longitude": -80.5204096}, {"city": "Stony Brook, NY", "href": "http://www.unhackathon.org/", "name": "Unhackathon", "latitude": 40.9256538, "image": "https://s3.amazonaws.com/assets.mlh.io/events/logos/000/000/057/thumb/unhackathon.png?1402504904", "weekend": "September 19th - 21st", "id": 8, "longitude": -73.1409429}, {"city": "Ithaca, NY", "href": "http://bigredhacks.com", "name": "BigRed//Hacks", "latitude": 42.4439614, "image": "https://s3.amazonaws.com/assets.mlh.io/events/logos/000/000/045/thumb/bigredhacks.png?1402058405", "weekend": "September 26th - 28th", "id": 9, "longitude": -76.5018807}, {"city": "Mayaguez, PR", "href": "http://hackpr.io/", "name": "HackPR", "latitude": 18.2013463, "image": "https://s3.amazonaws.com/assets.mlh.io/events/logos/000/000/077/thumb/hackpr.png?1407691709", "weekend": "September 27th - 28th", "id": 10, "longitude": -67.1451517}, {"city": "Baltimore, MD", "href": "http://hackumbc.org/", "name": "HackUMBC", "latitude": 39.2903848, "image": "https://s3.amazonaws.com/assets.mlh.io/events/logos/000/000/082/thumb/hackumbc.png?1408031812", "weekend": "September 27th - 28th", "id": 11, "longitude": -76.6121893}, {"city": "Berkeley, CA", "href": "http://www.calhacks.io", "name": "Cal Hacks", "latitude": 37.8715926, "image": "https://s3.amazonaws.com/assets.mlh.io/events/logos/000/000/043/thumb/calhacks.png?1402058011", "weekend": "October 3rd - 5th", "id": 12, "longitude": -122.272747}, {"city": "Columbia, MO", "href": "http://www.hackmizzou.com", "name": "Hack Mizzou", "latitude": 38.9517053, "image": "https://s3.amazonaws.com/assets.mlh.io/events/logos/000/000/048/thumb/hackmizzou.png?1402058798", "weekend": "October 3rd - 5th", "id": 13, "longitude": -92.3340724}, {"city": "Cambridge, MA", "href": "http://www.hackmit.org", "name": "HackMIT", "latitude": 42.3736158, "image": "https://s3.amazonaws.com/assets.mlh.io/events/logos/000/000/049/thumb/hackmit.png?1402058887", "weekend": "October 4th - 5th", "id": 14, "longitude": -71.10973349999999}, {"city": "New Brunswick, NJ", "href": "http://hackru.org/", "name": "HackRU", "latitude": 40.4862157, "image": "https://s3.amazonaws.com/assets.mlh.io/events/logos/000/000/076/thumb/hackru.png?1407691573", "weekend": "October 11th - 12th", "id": 15, "longitude": -74.4518188}, {"city": "West Lafayette, IN", "href": "http://boilermake.org/", "name": "BoilerMake", "latitude": 40.4258686, "image": "https://s3.amazonaws.com/assets.mlh.io/events/logos/000/000/071/thumb/boilermake.png?1404142644", "weekend": "October 17th - 19th", "id": 16, "longitude": -86.90806549999999}, {"city": "Seattle, WA", "href": "http://dubhacks.co/", "name": "Dubhacks", "latitude": 47.6062095, "image": "https://s3.amazonaws.com/assets.mlh.io/events/logos/000/000/072/thumb/dubhacks.png?1404743640", "weekend": "October 17th - 18th", "id": 17, "longitude": -122.3320708}, {"city": "New York, NY", "href": "http://www.hackNY.org", "name": "hackNY", "latitude": 40.7127837, "image": "https://s3.amazonaws.com/assets.mlh.io/events/logos/000/000/044/thumb/hackny.png?1402058320", "weekend": "October 18th - 19th", "id": 18, "longitude": -74.0059413}, {"city": "Austin, TX", "href": "http://hacktx.com/", "name": "HackTX", "latitude": 30.267153, "image": "https://s3.amazonaws.com/assets.mlh.io/events/logos/000/000/056/thumb/hacktx.png?1402501894", "weekend": "October 18th - 19th", "id": 19, "longitude": -97.7430608}, {"city": "Kent, OH", "href": "http://hacksu.cs.kent.edu/khe2014", "name": "Kent Hack Enough", "latitude": 41.1536674, "image": "https://s3.amazonaws.com/assets.mlh.io/events/logos/000/000/051/thumb/kenthackenough.jpg?1402059414", "weekend": "October 24th - 26th", "id": 20, "longitude": -81.3578859}, {"city": "College Station, TX", "href": "http://tamuhack.com/", "name": "TAMUHack", "latitude": 30.627977, "image": "https://s3.amazonaws.com/assets.mlh.io/events/logos/000/000/063/thumb/tamuhack.png?1403901116", "weekend": "October 24th - 25th", "id": 21, "longitude": -96.3344068}, {"city": "Chapel Hill, NC", "href": "http://hacknc.us/", "name": "HackNC", "latitude": 35.9131996, "image": "https://s3.amazonaws.com/assets.mlh.io/events/logos/000/000/079/thumb/hacknc.png?1407691983", "weekend": "October 25th - 26th", "id": 22, "longitude": -79.0558445}, {"city": "Santa Monica, CA", "href": "http://www.hackcc.org/", "name": "HackCC", "latitude": 34.0194543, "image": "https://s3.amazonaws.com/assets.mlh.io/events/logos/000/000/081/thumb/hackcc.jpg?1408460823", "weekend": "November 7th - 9th", "id": 23, "longitude": -118.4911912}, {"city": "South Hadley, MA", "href": "https://www.mtholyoke.edu/org/compsci/hackholyoke/", "name": "HackHolyoke", "latitude": 42.2591729, "image": "https://s3.amazonaws.com/assets.mlh.io/events/logos/000/000/095/thumb/hackholyoke.png?1412641847", "weekend": "November 7th - 8th", "id": 24, "longitude": -72.57479339999999}, {"city": "Los Angeles, CA", "href": "http://f2014.hacksc.com/", "name": "HackSC", "latitude": 34.0522342, "image": "https://s3.amazonaws.com/assets.mlh.io/events/logos/000/000/089/thumb/hacksc2.png?1414020314", "weekend": "November 7th - 9th", "id": 25, "longitude": -118.2436849}, {"city": "Newark, NJ", "href": "http://hacknjit.org", "name": "HackNJIT", "latitude": 40.735657, "image": "https://s3.amazonaws.com/assets.mlh.io/events/logos/000/000/088/thumb/hacknjit.png?1411061301", "weekend": "November 8th - 9th", "id": 26, "longitude": -74.1723667}, {"city": "Richmond, VA", "href": "http://ramhacks.vcu.edu/", "name": "RamHacks", "latitude": 37.5407246, "image": "https://s3.amazonaws.com/assets.mlh.io/events/logos/000/000/074/thumb/ramhacks.png?1406324384", "weekend": "November 8th - 9th", "id": 27, "longitude": -77.4360481}, {"city": "Princeton, NJ", "href": "http://www.hackprinceton.com", "name": "HackPrinceton", "latitude": 40.3572976, "image": "https://s3.amazonaws.com/assets.mlh.io/events/logos/000/000/053/thumb/hackprinceton.png?1413918237", "weekend": "November 14th - 16th", "id": 28, "longitude": -74.6672226}, {"city": "Cincinnati, OH", "href": "http://revolutionuc.com", "name": "RevolutionUC", "latitude": 39.1031182, "image": "https://s3.amazonaws.com/assets.mlh.io/events/logos/000/000/094/thumb/revolutionuc.png?1412639088", "weekend": "November 14th - 16th", "id": 29, "longitude": -84.5120196}, {"city": "Durham, NC", "href": "http://www.hackduke.com/", "name": "HackDuke", "latitude": 35.9940329, "image": "https://s3.amazonaws.com/assets.mlh.io/events/logos/000/000/086/thumb/hackduke.png?1410315346", "weekend": "November 15th - 16th", "id": 30, "longitude": -78.898619}, {"city": "Troy, NY", "href": "http://www.hackrpi.com/", "name": "HackRPI", "latitude": 42.7284117, "image": "https://s3.amazonaws.com/assets.mlh.io/events/logos/000/000/060/thumb/hackrpi.png?1402587533", "weekend": "November 15th - 16th", "id": 31, "longitude": -73.69178509999999}, {"city": "Evanston, IL", "href": "http://wildhacks.org/", "name": "Wildhacks", "latitude": 42.0450722, "image": "https://s3.amazonaws.com/assets.mlh.io/events/logos/000/000/073/thumb/wildhacks.png?1405369401", "weekend": "November 22nd - 23rd", "id": 32, "longitude": -87.68769689999999}, {"city": "NYC, NY", "href": "http://localhackday.mlh.io/", "name": "LocalHackDay", "latitude": 40.7127837, "image": "https://s3.amazonaws.com/assets.mlh.io/events/logos/000/000/084/thumb/localhackday.png?1408930969", "weekend": "December 6th", "id": 33, "longitude": -74.0059413}]